[
  {
    "id": 1,
    "nome": "Alexanderplatz Jazz Club",
    "indirizzo": "Via Ostia 9 – Prati",
    "telefono": "+390686781296",
    "tag": "JAZZ · DAL 1984",
    "website": "https://www.alexanderplatzjazz.com/tutti-gli-eventi",
    "generi": ["Jazz"],
    "tipo": "Live Club",
    "descrizione": "Storico jazz club romano dal 1984. Concerti ogni sera con artisti nazionali e internazionali.",
    "lat": 41.9025,
    "lng": 12.4628
  },
  {
    "id": 2,
    "nome": "Auditorium Parco della Musica",
    "indirizzo": "Viale Pietro de Coubertin 30 – Flaminio",
    "telefono": "+390680241281",
    "tag": "CLASSICA · JAZZ · CONTEMPORANEA",
    "website": "https://www.auditorium.com/it/eventi/",
    "generi": ["Classica", "Jazz", "Contemporanea"],
    "tipo": "Auditorium",
    "descrizione": "Complesso polifunzionale con 3 sale da concerto e arena da 3000 posti. Dalla classica alla contemporanea.",
    "lat": 41.9293,
    "lng": 12.4734
  },
  {
    "id": 3,
    "nome": "Casa del Jazz",
    "indirizzo": "Viale di Porta Ardeatina 55 – Ostiense",
    "telefono": "+390670476604",
    "tag": "JAZZ · DAL 2005",
    "website": "https://www.casadeljazz.com/eventi/",
    "generi": ["Jazz"],
    "tipo": "Live Club",
    "descrizione": "Spazio dedicato al jazz con sala concerti, giardino e attività didattiche.",
    "lat": 41.8727,
    "lng": 12.4794
  },
  {
    "id": 4,
    "nome": "Big Mama Blues Club",
    "indirizzo": "Vicolo San Francesco a Ripa 18 – Trastevere",
    "telefono": "+390658120551",
    "tag": "BLUES · R&B · ROCK · DAL 1984",
    "website": "http://www.bigmama.it",
    "generi": ["Blues", "R&B", "Rock"],
    "tipo": "Live Club",
    "descrizione": "Il tempio del blues romano dal 1984. Ingresso con tessera annuale.",
    "lat": 41.8888,
    "lng": 12.4706
  },
  {
    "id": 5,
    "nome": "Fonclea",
    "indirizzo": "Via Crescenzio 82 – Prati",
    "telefono": "+39066896302",
    "tag": "LIVE MUSIC PUB · DAL 1977 · OGNI GIORNO",
    "website": "https://www.fonclea.it/concerti.php",
    "generi": ["Rock", "Jazz", "Folk", "Latino"],
    "tipo": "Pub / Ristorante",
    "descrizione": "Attivo dal 1977, offre spettacoli musicali ogni giorno. Rock, jazz, latino, folk.",
    "lat": 41.9038,
    "lng": 12.4648
  },
  {
    "id": 6,
    "nome": "Largo Venue",
    "indirizzo": "Via Biordo Michelotti 2 – Prenestina",
    "telefono": "+390624403640",
    "tag": "INDIE · ROCK · POP · ELETTRONICA",
    "website": "https://largovenue.com/upcoming-events/",
    "generi": ["Indie", "Rock", "Pop", "Elettronica"],
    "tipo": "Venue",
    "descrizione": "Spazio recuperato con concerti, clubbing e attività per famiglie. Con giardino estivo.",
    "lat": 41.8876,
    "lng": 12.5301
  },
  {
    "id": 7,
    "nome": "Vinile",
    "indirizzo": "Via Giuseppe Libetta 19 – Ostiense",
    "telefono": "+390657289961",
    "tag": "POP · ROCK · INDIE · DJ SET",
    "website": "https://www.vinileroma.it/calendario-eventi/",
    "generi": ["Pop", "Rock", "Indie"],
    "tipo": "Live Club",
    "descrizione": "Locale con ampia selezione di drinks e musica di qualità.",
    "lat": 41.8648,
    "lng": 12.4789
  },
  {
    "id": 8,
    "nome": "Stazione Birra",
    "indirizzo": "Via Oderisi da Gubbio 31 – Ostiense",
    "telefono": "+390655282570",
    "tag": "ROCK · BLUES · LIVE & PUB",
    "website": "https://www.stazionebirra.com",
    "generi": ["Rock", "Blues"],
    "tipo": "Pub / Live Club",
    "descrizione": "Birrificio artigianale con palco live. Rock e blues ogni settimana.",
    "lat": 41.8655,
    "lng": 12.4741
  },
  {
    "id": 9,
    "nome": "CrossRoads Live Club",
    "indirizzo": "Via Braccianese 771 – Osteria Nuova",
    "telefono": "+390630466450",
    "tag": "ROCK · BLUES · COUNTRY · DAL 2014",
    "website": "https://www.crossroadsliveclub.it/tutti-gli-eventi/",
    "generi": ["Rock", "Blues", "Country"],
    "tipo": "Live Club",
    "descrizione": "Dal 2014, specializzato in rock, blues e country.",
    "lat": 42.0621,
    "lng": 12.3587
  },
  {
    "id": 10,
    "nome": "Geronimo's Live Music Club",
    "indirizzo": "Via Rasella 59 – Centro Storico",
    "telefono": "+390642014077",
    "tag": "JAZZ · SOUL · BLUES · RESTAURANT",
    "website": "https://www.geronimosonline.it",
    "generi": ["Jazz", "Soul", "Blues"],
    "tipo": "Ristorante / Live",
    "descrizione": "Jazz, soul e blues con cena. Nel cuore del centro storico.",
    "lat": 41.9003,
    "lng": 12.4882
  },
  {
    "id": 11,
    "nome": "Palazzo dello Sport (PalaEur)",
    "indirizzo": "Piazzale dello Sport 1 – EUR",
    "telefono": "+39060606",
    "tag": "ARENA · 11.500 POSTI · GRANDI EVENTI",
    "website": "https://www.palazzodellospортroma.it",
    "generi": ["Pop", "Rock", "Elettronica"],
    "tipo": "Arena",
    "descrizione": "Arena indoor con capacità 11.500 persone. Ospita grandi eventi musicali e sportivi.",
    "lat": 41.8327,
    "lng": 12.4713
  },
  {
    "id": 12,
    "nome": "Alcazar Live",
    "indirizzo": "Via Cardinale Merry del Val 14b – Trastevere",
    "telefono": "+390658333999",
    "tag": "SOUL · FUNK · R&B · JAZZ · RESTAURANT",
    "website": "https://www.alcazarlive.it",
    "generi": ["Soul", "Funk", "R&B", "Jazz"],
    "tipo": "Live Club",
    "descrizione": "Ex cinema, ospita artisti soul, funk, R&B, jazz. Giovedì jam session. Con ristorante.",
    "lat": 41.8872,
    "lng": 12.4695
  },
  {
    "id": 13,
    "nome": "Atlantico Live",
    "indirizzo": "Viale dell'Oceano Atlantico 271d – EUR",
    "telefono": "+39065926101",
    "tag": "ROCK · LIVE CLUB · 4000 POSTI",
    "website": "https://www.atlanticolive.it",
    "generi": ["Rock", "Pop", "Elettronica"],
    "tipo": "Live Club",
    "descrizione": "Capacità 4000 persone. Concerti rock e DJ internazionali.",
    "lat": 41.8289,
    "lng": 12.4654
  },
  {
    "id": 14,
    "nome": "Argot",
    "indirizzo": "Via dei Cappellari 93 – Campo de' Fiori",
    "telefono": "+390668806601",
    "tag": "JAZZ · SOUL · BLUES · COCKTAIL LOUNGE",
    "website": "https://www.argotroma.it",
    "generi": ["Jazz", "Soul", "Blues"],
    "tipo": "Cocktail Lounge",
    "descrizione": "Cocktail lounge con concerti jazz, soul e blues nei weekend.",
    "lat": 41.8952,
    "lng": 12.4714
  },
  {
    "id": 15,
    "nome": "Blackmarket Hall",
    "indirizzo": "Via de Ciancaleoni 31 – Monti",
    "telefono": "+393473456789",
    "tag": "INDIE · FOLK · ACUSTICO · BAR VINTAGE",
    "website": "https://www.blackmarkethall.com",
    "generi": ["Indie", "Folk", "Rock"],
    "tipo": "Bar / Live Club",
    "descrizione": "Bar vintage con concerti acustici e band internazionali.",
    "lat": 41.8942,
    "lng": 12.4972
  },
  {
    "id": 16,
    "nome": "Lian Club",
    "indirizzo": "Lungotevere dei Mellini 7 – Prati",
    "telefono": "+390632652267",
    "tag": "JAZZ · ELETTRONICA · CLUB SU BARCA",
    "website": "https://www.lianclub.it",
    "generi": ["Jazz", "Elettronica", "Soul"],
    "tipo": "Club su Barca",
    "descrizione": "Nato nel 2006, locale su barca ormeggiata sul Tevere. Dal jazz all'elettronica.",
    "lat": 41.9107,
    "lng": 12.4668
  },
  {
    "id": 17,
    "nome": "Monk Club",
    "indirizzo": "Via Giuseppe Mirri 35 – Prenestina",
    "telefono": "+390624403640",
    "tag": "CONCERTI · COMEDY · WORKSHOP",
    "website": "https://www.monkroma.it",
    "generi": ["Indie", "Jazz", "Elettronica"],
    "tipo": "Spazio Polivalente",
    "descrizione": "Concerti, stand up comedy, workshop. D'estate attivo il Giardino di Monk.",
    "lat": 41.8868,
    "lng": 12.5289
  },
  {
    "id": 18,
    "nome": "Fanfulla 5/a",
    "indirizzo": "Via Fanfulla da Lodi 5/a – Pigneto",
    "telefono": "+390627800351",
    "tag": "SPERIMENTALE · UNDERGROUND · CIRCOLO ARCI",
    "website": "https://www.fanfulla5a.it",
    "generi": ["Sperimentale", "Indie", "Folk"],
    "tipo": "Circolo Arci",
    "descrizione": "Istituzione underground con musica sperimentale, cinema e teatro.",
    "lat": 41.8873,
    "lng": 12.5327
  },
  {
    "id": 19,
    "nome": "Al Muretto",
    "indirizzo": "Via degli Aurunci 26 – San Lorenzo",
    "telefono": "+390644362382",
    "tag": "OPEN MIC · LIVE WEEKEND · KARAOKE",
    "website": "https://www.almuretto.it",
    "generi": ["Indie", "Pop", "Rock"],
    "tipo": "Locale Culturale",
    "descrizione": "Dalla mattina: karaoke, open mic, stand up comedy, musica live nei weekend.",
    "lat": 41.8972,
    "lng": 12.5122
  },
  {
    "id": 20,
    "nome": "Traffic Live",
    "indirizzo": "Via Prenestina 738 – Prenestina",
    "telefono": "+390622780735",
    "tag": "HEAVY METAL · ROCK · LIVE CLUB",
    "website": "https://www.trafficlive.it",
    "generi": ["Metal", "Rock"],
    "tipo": "Live Club",
    "descrizione": "Specializzato in heavy metal e rock. Il riferimento per il metal romano.",
    "lat": 41.8801,
    "lng": 12.5601
  },
  {
    "id": 21,
    "nome": "Wishlist Club",
    "indirizzo": "Via dei Volsci 126b – San Lorenzo",
    "telefono": "+390644236090",
    "tag": "JAZZ · ROCK · INDIE · SALA CONCERTI",
    "website": "https://www.wishlistclub.it",
    "generi": ["Jazz", "Rock", "Indie"],
    "tipo": "Sala Concerti",
    "descrizione": "Mix di generi jazz, rock, indie. Artisti noti e band emergenti.",
    "lat": 41.8965,
    "lng": 12.5143
  },
  {
    "id": 22,
    "nome": "Orion Club",
    "indirizzo": "Viale J. F. Kennedy 52 – Ciampino",
    "telefono": "+3906798366",
    "tag": "CONCERTI · 1000 POSTI · ECLETTICO",
    "website": "https://www.orionlive.it",
    "generi": ["Rock", "Metal", "Pop", "Indie"],
    "tipo": "Club",
    "descrizione": "Capacità 1000 persone. Eventi eclettici dal concerto acustico al metal.",
    "lat": 41.8001,
    "lng": 12.6013
  },
  {
    "id": 23,
    "nome": "L'Asino che Vola",
    "indirizzo": "Via Antonio Coppi 12d – Caffarella",
    "telefono": "+390677209349",
    "tag": "CONCERTI · TEATRO · CUCINA CALABRESE",
    "website": "https://www.lasinochesvola.it",
    "generi": ["Folk", "Jazz", "Indie"],
    "tipo": "Risto-Cultural-Live",
    "descrizione": "Spazio polivalente con concerti, teatro, letture. Cucina calabrese/mediterranea.",
    "lat": 41.8704,
    "lng": 12.5204
  },
  {
    "id": 24,
    "nome": "Trenta Formiche",
    "indirizzo": "Via del Mandrione 3 – Pigneto",
    "telefono": "+390624404500",
    "tag": "EMERGENTI · UNDERGROUND · DAL 2010",
    "website": "https://www.trentaformiche.it",
    "generi": ["Indie", "Sperimentale", "Rock"],
    "tipo": "Live Club",
    "descrizione": "Dal 2010, artisti emergenti e underground. Ha scuola di musica interna.",
    "lat": 41.8851,
    "lng": 12.5358
  }
]
